facility,puis,confirmed_cases,region,latitude,longitude,dashboard_last_updated,inserted_at
Research Institute for Tropical Medicine,24.0,19.0,NCR,14.4096347,121.0374245,2020-03-25 16:00:00.000,2020-03-26 03:08:48.977
St. Luke's Medical Center - Global City,23.0,63.0,NCR,14.555719,121.048688,2020-03-25 16:00:00.000,2020-03-26 03:08:49.041
The Medical City - Ortigas,23.0,54.0,NCR,14.5896199,121.0697968,2020-03-25 16:00:00.000,2020-03-26 03:08:49.201
ARMED FORCES OF THE PHILIPPINES HEALTH SERVICE COMMAND,19.0,0.0,NCR,14.63474,121.052451,2020-03-25 16:00:00.000,2020-03-26 03:08:49.260
Cardinal Santos Medical Center,14.0,46.0,NCR,14.5980042,121.0455297,2020-03-25 16:00:00.000,2020-03-26 03:08:49.319
Makati Medical Center,11.0,30.0,NCR,14.55938,121.014535,2020-03-25 16:00:00.000,2020-03-26 03:08:49.374
St. Luke's Medical Center - Quezon City,8.0,53.0,NCR,14.6223199,121.0238985,2020-03-25 16:00:00.000,2020-03-26 03:08:49.464
Asian Hospital and Medical Center,6.0,36.0,NCR,14.413416,121.043663,2020-03-25 16:00:00.000,2020-03-26 03:08:50.042
SAN JUAN DE DIOS EDUCATIONAL FOUNDATION INC HOSPITAL,5.0,0.0,NCR,14.538679,120.992679,2020-03-25 16:00:00.000,2020-03-26 03:08:50.095
Diliman Doctors Hospital,4.0,2.0,NCR,14.6685,121.076,2020-03-25 16:00:00.000,2020-03-26 03:08:50.147
Marikina Valley Medical Center,4.0,5.0,NCR,14.6348191,121.1039995,2020-03-25 16:00:00.000,2020-03-26 03:08:50.207
MANILA DOCTOR'S HOSPITAL,3.0,0.0,NCR,14.5817322,120.9829481,2020-03-25 16:00:00.000,2020-03-26 03:08:50.267
San Lazaro Hospital,3.0,16.0,NCR,14.61348,120.98095,2020-03-25 16:00:00.000,2020-03-26 03:08:50.327
Chinese General Hospital and Medical Center,2.0,10.0,NCR,14.626005,120.987801,2020-03-25 16:00:00.000,2020-03-26 03:08:50.378
Our Lady of Lourdes Hospital,2.0,4.0,NCR,14.507092,121.053702,2020-03-25 16:00:00.000,2020-03-26 03:08:50.437
Quirino Memorial Medical Center,2.0,6.0,NCR,14.622121,121.072133,2020-03-25 16:00:00.000,2020-03-26 03:08:50.488
SANTA ANA HOSPITAL - MANILA,2.0,0.0,NCR,14.583602,121.016192,2020-03-25 16:00:00.000,2020-03-26 03:08:50.540
TRICITY MEDICAL CENTER,2.0,0.0,NCR,14.5762402,121.084877,2020-03-25 16:00:00.000,2020-03-26 03:08:50.742
UNIHEALTH PARANAQUE HOSPITAL,2.0,0.0,NCR,14.4645782,121.0197924,2020-03-25 16:00:00.000,2020-03-26 03:08:50.801
Victor R. Potenciano Medical Center,2.0,8.0,NCR,14.583571,121.028207,2020-03-25 16:00:00.000,2020-03-26 03:08:50.852
ADVENTIST MEDICAL CENTER - MANILA,1.0,0.0,NCR,14.5559937,120.995464,2020-03-25 16:00:00.000,2020-03-26 03:08:50.921
Dr. Jose N. Rodriguez Memorial Hospital and Sanitarium,1.0,2.0,NCR,14.766856,121.06442,2020-03-25 16:00:00.000,2020-03-26 03:08:50.971
East Avenue Medical Center,1.0,4.0,NCR,14.6423301,121.0480834,2020-03-25 16:00:00.000,2020-03-26 03:08:51.032
Fatima University Medical Center,1.0,2.0,NCR,14.678054,120.980208,2020-03-25 16:00:00.000,2020-03-26 03:08:51.093
LAS PINAS GENERAL HOSPITAL AND SATELITE TRAUMA CENTER,1.0,0.0,NCR,14.4717741,120.9740679,2020-03-25 16:00:00.000,2020-03-26 03:08:51.144
Lung Center of the Philippines,1.0,18.0,NCR,14.6478365,121.0456111,2020-03-25 16:00:00.000,2020-03-26 03:08:51.246
Medical Center Manila,1.0,4.0,NCR,14.582394,120.985338,2020-03-25 16:00:00.000,2020-03-26 03:08:51.297
Metropolitan Medical Center,1.0,5.0,NCR,14.60963,120.978641,2020-03-25 16:00:00.000,2020-03-26 03:08:51.347
Rizal Medical Center,1.0,9.0,NCR,14.564082,121.0658777,2020-03-25 16:00:00.000,2020-03-26 03:08:51.397
University of Sto. Tomas Hospital,1.0,9.0,NCR,14.610995,120.990039,2020-03-25 16:00:00.000,2020-03-26 03:08:51.448
UNIVERSITY OF THE EAST RAMON MAGSAYASY MEMORIAL MEDICAL CENTER,1.0,0.0,NCR,14.6069038,121.0203918,2020-03-25 16:00:00.000,2020-03-26 03:08:51.509
REGION 1 MEDICAL CENTER,11.0,0.0,Ilocos Region,16.048475,120.34189,2020-03-25 16:00:00.000,2020-03-26 03:08:51.570
ILOCOS SUR PROVINCIAL HOSPITAL - GABRIELA SILANG,4.0,0.0,Ilocos Region,17.553185,120.379761,2020-03-25 16:00:00.000,2020-03-26 03:08:51.629
LORMA MEDICAL CENTER,4.0,0.0,Ilocos Region,16.6315112,120.3177018,2020-03-25 16:00:00.000,2020-03-26 03:08:51.690
La Union Medical Center,2.0,2.0,Ilocos Region,16.3469685,120.3633779,2020-03-25 16:00:00.000,2020-03-26 03:08:51.740
DAGUPAN DOCTORS VILLAFLOR HOSPITAL,1.0,0.0,Ilocos Region,16.037572,120.347093,2020-03-25 16:00:00.000,2020-03-26 03:08:51.795
Ilocos Training and Regional Medical Center,1.0,1.0,Ilocos Region,16.590987,120.316968,2020-03-25 16:00:00.000,2020-03-26 03:08:51.855
PANGASINAN DOCTORS HOSPITAL,1.0,0.0,Ilocos Region,15.9403176,120.3449821,2020-03-25 16:00:00.000,2020-03-26 03:08:51.905
SOUTHERN ISABELA MEDICAL CENTER,14.0,0.0,Cagayan Valley,16.680734,121.546678,2020-03-25 16:00:00.000,2020-03-26 03:08:51.965
REGION 2 TRAUMA AND MEDICAL CENTER,7.0,0.0,Cagayan Valley,16.4833227,121.134181,2020-03-25 16:00:00.000,2020-03-26 03:08:52.016
CAGAYAN VALLEY MEDICAL CENTER (CVMC),5.0,0.0,Cagayan Valley,17.657142,121.745972,2020-03-25 16:00:00.000,2020-03-26 03:08:52.262
CAUAYAN MEDICAL SPECIALIST HOSPITAL,1.0,0.0,Cagayan Valley,16.935884,121.770443,2020-03-25 16:00:00.000,2020-03-26 03:08:52.321
CENTRO MEDICO,4.0,0.0,Central Luzon,14.672753,120.524379,2020-03-25 16:00:00.000,2020-03-26 03:08:52.470
Jose B. Lingad Memorial Regional Hospital,3.0,6.0,Central Luzon,15.034472,120.684639,2020-03-25 16:00:00.000,2020-03-26 03:08:52.530
JECSON MEDICAL CENTER,2.0,0.0,Central Luzon,15.4911435,120.5974164,2020-03-25 16:00:00.000,2020-03-26 03:08:52.582
Bataan St. Joseph Hospital and Medical Center,1.0,1.0,Central Luzon,14.6814159,120.5415323,2020-03-25 16:00:00.000,2020-03-26 03:08:52.641
Dr. Paulino J Garcia Memorial Research And Medical Center,1.0,3.0,Central Luzon,15.489261,120.972506,2020-03-25 16:00:00.000,2020-03-26 03:08:53.329
JAMES L. GORDON MEMORIAL HOSPITAL,1.0,0.0,Central Luzon,14.826389,120.280028,2020-03-25 16:00:00.000,2020-03-26 03:08:53.381
PAMPANGA PREMIER MEDICAL CENTER,1.0,0.0,Central Luzon,14.960325,120.759348,2020-03-25 16:00:00.000,2020-03-26 03:08:53.441
PREMIERE MEDICAL CENTER,1.0,0.0,Central Luzon,14.4886025,120.9929305,2020-03-25 16:00:00.000,2020-03-26 03:08:53.501
RAMOS GENERAL HOSPITAL,1.0,0.0,Central Luzon,15.4849139,120.5929758,2020-03-25 16:00:00.000,2020-03-26 03:08:53.553
TARLAC PROVINCIAL HOSPITAL,1.0,0.0,Central Luzon,15.4750405,120.5865492,2020-03-25 16:00:00.000,2020-03-26 03:08:53.605
Qualimed - Sta. Rosa Hospital,2.0,1.0,CALABARZON,14.23239,121.05266,2020-03-25 16:00:00.000,2020-03-26 03:08:53.655
MARY MEDIATRIX MEDICAL CENTER,1.0,0.0,CALABARZON,13.943517,121.151582,2020-03-25 16:00:00.000,2020-03-26 03:08:53.716
ORTIGAS HOSPITAL AND HEALTHCARE CENTER,1.0,0.0,CALABARZON,14.585762,121.117815,2020-03-25 16:00:00.000,2020-03-26 03:08:53.775
SILANG SPECIALIST MEDICAL CENTER,1.0,0.0,CALABARZON,14.23456,120.972698,2020-03-25 16:00:00.000,2020-03-26 03:08:53.825
CULION SANITARIUM,3.0,0.0,MIMAROPA,11.89178,120.02352,2020-03-25 16:00:00.000,2020-03-26 03:08:53.876
Ospital ng Palawan,3.0,1.0,MIMAROPA,9.74804,118.74415,2020-03-25 16:00:00.000,2020-03-26 03:08:53.936
LUBANG DISTRICT HOSPITAL,2.0,0.0,MIMAROPA,13.853591,120.107974,2020-03-25 16:00:00.000,2020-03-26 03:08:53.987
OCCIDENTAL MINDORO PROVINCIAL HOSPITAL,2.0,0.0,MIMAROPA,13.23024,120.58605,2020-03-25 16:00:00.000,2020-03-26 03:08:54.038
SAN SEBASTIAN DISTRICT HOSPITAL,2.0,0.0,MIMAROPA,12.84571,120.78698,2020-03-25 16:00:00.000,2020-03-26 03:08:54.097
CAMP GENERAL ARTEMIO RICARTE STATION HOSPITAL,1.0,0.0,MIMAROPA,9.746667,118.770841,2020-03-25 16:00:00.000,2020-03-26 03:08:54.157
DAMIAN PROV HOSPITAL,1.0,0.0,MIMAROPA,13.442819,121.82898,2020-03-25 16:00:00.000,2020-03-26 03:08:54.208
ISIAH HOSPITAL,1.0,0.0,MIMAROPA,12.385066,121.986913,2020-03-25 16:00:00.000,2020-03-26 03:08:54.268
PALAWAN MEDICAL MISSION MULTIPURPOSE COOPERATIVE,1.0,0.0,MIMAROPA,9.73538,118.73369,2020-03-25 16:00:00.000,2020-03-26 03:08:54.327
BICOL MEDICAL CENTER,1.0,0.0,Bicol Region,13.622059,123.198944,2020-03-25 16:00:00.000,2020-03-26 03:08:54.386
BICOL REGIONAL TRAINING AND TEACHING HOSPITAL,1.0,0.0,Bicol Region,13.310798,123.897777,2020-03-25 16:00:00.000,2020-03-26 03:08:54.482
The Medical City Iloilo,3.0,2.0,Western Visayas,10.699607,122.54303,2020-03-25 16:00:00.000,2020-03-26 03:08:54.534
WESTERN VISAYAS MEDICAL CENTER,3.0,0.0,Western Visayas,10.718087,122.540385,2020-03-25 16:00:00.000,2020-03-26 03:08:54.593
Roxas Memorial Provincial Hospital,1.0,1.0,Western Visayas,11.588119,122.752371,2020-03-25 16:00:00.000,2020-03-26 03:08:54.653
THE HEALTH CENTRUM HOSPITAL,1.0,0.0,Western Visayas,11.581528,122.768203,2020-03-25 16:00:00.000,2020-03-26 03:08:54.704
CHONG HUA HOSPITAL,9.0,0.0,Central Visayas,10.309312,123.890621,2020-03-25 16:00:00.000,2020-03-26 03:08:54.763
Chong Hua Hospital Mandaue,7.0,1.0,Central Visayas,10.323323,123.931217,2020-03-25 16:00:00.000,2020-03-26 03:08:54.814
EVERSLEY CHILDS SANITARIUM,6.0,0.0,Central Visayas,10.3663702,123.9537125,2020-03-25 16:00:00.000,2020-03-26 03:08:54.864
GOV. CELESTINO GALLARES MEMORIAL HOSPITAL,3.0,0.0,Central Visayas,9.644068,123.856863,2020-03-25 16:00:00.000,2020-03-26 03:08:54.925
SIQUIJOR PROVINCIAL HOSPITAL,3.0,0.0,Central Visayas,9.219553,123.517105,2020-03-25 16:00:00.000,2020-03-26 03:08:54.982
VICENTE SOTTO MEMORIAL MEDICAL CENTER,2.0,0.0,Central Visayas,10.3080552,123.892631,2020-03-25 16:00:00.000,2020-03-26 03:08:55.042
ALLEGIANT REGIONAL CARE HOSPITALS,1.0,0.0,Central Visayas,10.282484,123.990058,2020-03-25 16:00:00.000,2020-03-26 03:08:55.102
CEBU SOUTH GENERAL HOSPITAL,1.0,0.0,Central Visayas,10.2322176,123.7714821,2020-03-25 16:00:00.000,2020-03-26 03:08:55.152
MACTAN DOCTORS' HOSPITAL,1.0,0.0,Central Visayas,10.2904036,123.9669379,2020-03-25 16:00:00.000,2020-03-26 03:08:55.211
SAINT VINCENT GENERAL HOSPITAL,1.0,0.0,Central Visayas,10.30155,123.894724,2020-03-25 16:00:00.000,2020-03-26 03:08:55.262
ST. ANTHONY MOTHER AND CHILD HOSPITAL,1.0,0.0,Central Visayas,10.286327,123.871411,2020-03-25 16:00:00.000,2020-03-26 03:08:55.321
Eastern Visayas Regional Medical Center,4.0,1.0,Eastern Visayas,11.251723,125.004292,2020-03-25 16:00:00.000,2020-03-26 03:08:55.478
"CATARMAN DOCTORS HOSPITAL INC.,",1.0,0.0,Eastern Visayas,12.497957,124.647924,2020-03-25 16:00:00.000,2020-03-26 03:08:55.529
ORAS DISTRICT HOSPITAL,1.0,0.0,Eastern Visayas,12.1441026,125.4369005,2020-03-25 16:00:00.000,2020-03-26 03:08:55.580
PNP REGION 8,1.0,0.0,Eastern Visayas,11.184526,124.990378,2020-03-25 16:00:00.000,2020-03-26 03:08:55.630
REMEDIOS TRINIDAD ROMUALDEZ HOSPITAL,1.0,0.0,Eastern Visayas,11.212023,124.999876,2020-03-25 16:00:00.000,2020-03-26 03:08:56.211
MAYOR HILARION A. RAMIRO SR. MEDICAL CENTER,2.0,0.0,Northern Mindanao,8.1696196,123.8586578,2020-03-25 16:00:00.000,2020-03-26 03:08:56.263
Northern Mindanao Medical Center,2.0,4.0,Northern Mindanao,8.485676,124.649264,2020-03-25 16:00:00.000,2020-03-26 03:08:56.323
MERCY COMMUNITY HOSPITAL INC.,1.0,0.0,Northern Mindanao,8.20825,124.2404099,2020-03-25 16:00:00.000,2020-03-26 03:08:56.374
RHU BAROY,1.0,0.0,Northern Mindanao,8.0258303,123.7783432,2020-03-25 16:00:00.000,2020-03-26 03:08:56.424
Davao Regional Medical Center,11.0,2.0,Davao Region,7.422318,125.828438,2020-03-25 16:00:00.000,2020-03-26 03:08:56.476
Southern Philippines Medical Center,8.0,4.0,Davao Region,7.099528,125.619416,2020-03-25 16:00:00.000,2020-03-26 03:08:56.535
ST. ELIZABETH HOSPITAL,4.0,0.0,SOCCSKSARGEN,6.118547,125.179903,2020-03-25 16:00:00.000,2020-03-26 03:08:56.613
Cotabato Regional and Medical Center,2.0,2.0,SOCCSKSARGEN,7.2000499,124.236763,2020-03-25 16:00:00.000,2020-03-26 03:08:56.664
Cotabato Regional and Medical Center,1.0,2.0,SOCCSKSARGEN,7.2000499,124.236763,2020-03-25 16:00:00.000,2020-03-26 03:08:56.817
SOUTH COTABATO PROVINCIAL HOSPITAL,2.0,0.0,SOCCSKSARGEN,6.4931698,124.8396072,2020-03-25 16:00:00.000,2020-03-26 03:08:56.714
ALLAH VALLEY MEDICAL SPECIALIST INC.,1.0,0.0,SOCCSKSARGEN,6.4784999,124.8674011,2020-03-25 16:00:00.000,2020-03-26 03:08:56.766
DR. ARTURO PINGGOY MEDICAL CENTER,1.0,0.0,SOCCSKSARGEN,6.5053201,124.8370514,2020-03-25 16:00:00.000,2020-03-26 03:08:56.979
HOWARD HUBBARD MEMORIAL HOSPITAL,1.0,0.0,SOCCSKSARGEN,6.2459898,125.0946198,2020-03-25 16:00:00.000,2020-03-26 03:08:57.030
St. Louis Hospital,1.0,1.0,SOCCSKSARGEN,6.67869,124.6671371,2020-03-25 16:00:00.000,2020-03-26 03:08:57.080
Amai Pakpak Medical Center,6.0,3.0,BARMM,8.004503,124.283897,2020-03-25 16:00:00.000,2020-03-26 03:08:57.141
BENGUET GENERAL HOSPITAL,5.0,0.0,CAR,16.4508377,120.5895316,2020-03-25 16:00:00.000,2020-03-26 03:08:57.200
Baguio General Hospital And Medical Center,4.0,1.0,CAR,16.401006,120.5956721,2020-03-25 16:00:00.000,2020-03-26 03:08:57.259
NOTRE DAME DE CHARTRES HOSPITAL,3.0,0.0,CAR,16.4156176,120.5959821,2020-03-25 16:00:00.000,2020-03-26 03:08:57.310
CONNER DISTRICT HOSPITAL,2.0,0.0,CAR,17.800328,121.322549,2020-03-25 16:00:00.000,2020-03-26 03:08:57.361
FAR NORTH LUZON GENERAL HOSPITAL AND TRAINING CENTER,1.0,0.0,CAR,18.3386176,121.3838821,2020-03-25 16:00:00.000,2020-03-26 03:08:57.411
JUAN DUYAN MEMORIAL HOSPITAL,1.0,0.0,CAR,17.518614,121.582505,2020-03-25 16:00:00.000,2020-03-26 03:08:57.499
KALINGA PROVINCIAL HOSPITAL,1.0,0.0,CAR,17.4102,121.439935,2020-03-25 16:00:00.000,2020-03-26 03:08:57.550
KAPANGAN RHU,1.0,0.0,CAR,16.576121,120.607192,2020-03-25 16:00:00.000,2020-03-26 03:08:57.612
LANGIDEN RHU,1.0,0.0,CAR,17.575766,120.564408,2020-03-25 16:00:00.000,2020-03-26 03:08:57.671
PINES CITY DOCTORS HOSPITAL,1.0,0.0,CAR,16.426542,120.594647,2020-03-25 16:00:00.000,2020-03-26 03:08:57.721
PINUKPUK DISTRICT HOSPITAL,1.0,0.0,CAR,17.6129865,121.4097436,2020-03-25 16:00:00.000,2020-03-26 03:08:57.902
SAINT LOUIS UNIVERSITY HOSPITAL OF SACRED HEART,1.0,0.0,CAR,16.4170577,120.5977415,2020-03-25 16:00:00.000,2020-03-26 03:08:57.953
ADELA SERRA TY MEMORIAL MEDICAL CENTER,2.0,0.0,Caraga,9.068553,126.190498,2020-03-25 16:00:00.000,2020-03-26 03:08:58.013
CARAGA REGIONAL HOSPITAL,1.0,0.0,Caraga,9.784281,125.489826,2020-03-25 16:00:00.000,2020-03-26 03:08:58.093
For validation,0.0,52.0,,14.615867,120.980991,2020-03-25 16:00:00.000,2020-03-26 03:08:58.653
Manila Doctors Hospital,0.0,15.0,,14.582028,120.982657,2020-03-25 16:00:00.000,2020-03-26 03:08:59.034
Philippine Heart Center,0.0,9.0,,14.64407,121.048067,2020-03-25 16:00:00.000,2020-03-26 03:08:59.147
University of the East Ramon Magsaysay Memorial Medical Center,0.0,8.0,,14.60703,121.020581,2020-03-25 16:00:00.000,2020-03-26 03:08:59.342
Veterans Memorial Medical Center,0.0,7.0,,14.65616,121.04012,2020-03-25 16:00:00.000,2020-03-26 03:08:59.453
Santa Ana Hospital,0.0,5.0,,14.583621,121.016425,2020-03-25 16:00:00.000,2020-03-26 03:08:59.738
UP-Philippine General Hospital,0.0,4.0,,14.57768,120.985847,2020-03-25 16:00:00.000,2020-03-26 03:09:00.102
Capitol Medical Center,0.0,3.0,,14.634239,121.022776,2020-03-25 16:00:00.000,2020-03-26 03:09:00.204
Delos Santos Medical Center,0.0,3.0,,14.620153,121.017477,2020-03-25 16:00:00.000,2020-03-26 03:09:00.263
Fe Del Mundo Medical Center,0.0,3.0,,14.620412,121.009296,2020-03-25 16:00:00.000,2020-03-26 03:09:00.374
Las Pi単as General Hospital and Satellite Trauma Center,0.0,3.0,,14.471649,120.973822,2020-03-25 16:00:00.000,2020-03-26 03:09:00.425
New Era General Hospital,0.0,3.0,,14.664085,121.066728,2020-03-25 16:00:00.000,2020-03-26 03:09:00.492
San Juan Medical Center,0.0,3.0,,14.606611,121.023542,2020-03-25 16:00:00.000,2020-03-26 03:09:00.543
Ace Medical Center,0.0,2.0,,14.544081,121.065192,2020-03-25 16:00:00.000,2020-03-26 03:09:00.593
Bataan General Hospital And Medical Center,0.0,2.0,,14.678271,120.530364,2020-03-25 16:00:00.000,2020-03-26 03:09:00.644
Divine Grace Medical Center,0.0,2.0,,14.39785,120.868043,2020-03-25 16:00:00.000,2020-03-26 03:09:00.860
FEU - Dr. Nicanor Reyes Medical Foundation,0.0,2.0,,14.698851,121.067192,2020-03-25 16:00:00.000,2020-03-26 03:09:01.026
Mandaluyong City Medical Center,0.0,2.0,,14.576313,121.035279,2020-03-25 16:00:00.000,2020-03-26 03:09:01.136
National Kidney and Transplant Institute,0.0,2.0,,14.646807,121.047243,2020-03-25 16:00:00.000,2020-03-26 03:09:01.197
New Clark City (Grand Princess),0.0,2.0,,15.343406,120.534876,2020-03-25 16:00:00.000,2020-03-26 03:09:01.248
Perpetual Health Medical Center- Bi単an,0.0,2.0,,14.330259,121.085064,2020-03-25 16:00:00.000,2020-03-26 03:09:01.307
Providence Hospital,0.0,2.0,,14.640992,121.031746,2020-03-25 16:00:00.000,2020-03-26 03:09:01.383
Quezon Medical Center,0.0,2.0,,13.942133,121.612553,2020-03-25 16:00:00.000,2020-03-26 03:09:01.442
The Medical City - South Luzon,0.0,2.0,,14.248433,121.067344,2020-03-25 16:00:00.000,2020-03-26 03:09:01.502
Victoriano Luna Medical Center,0.0,2.0,,14.6357147,121.0526552,2020-03-25 16:00:00.000,2020-03-26 03:09:01.640
"ACE Dumaguete Doctors, Inc.",0.0,1.0,,9.317444,123.296207,2020-03-25 16:00:00.000,2020-03-26 03:09:01.691
Adventist Medical Center,0.0,1.0,,14.555997,120.99541,2020-03-25 16:00:00.000,2020-03-26 03:09:01.741
Alabang Medical Clinic,0.0,1.0,,14.419232,121.050028,2020-03-25 16:00:00.000,2020-03-26 03:09:01.793
Angono Medics Hospital,0.0,1.0,,14.531272,121.152922,2020-03-25 16:00:00.000,2020-03-26 03:09:01.853
Batangas Health Care Hospital - Jesus Of Nazareth,0.0,1.0,,13.759382,121.076785,2020-03-25 16:00:00.000,2020-03-26 03:09:02.041
Binakayan Hospital And Medical Center,0.0,1.0,,14.451741,120.926132,2020-03-25 16:00:00.000,2020-03-26 03:09:02.092
Cagayan Valley Medical Center,0.0,1.0,,17.656516,121.746768,2020-03-25 16:00:00.000,2020-03-26 03:09:02.143
Cavite Medical Center,0.0,1.0,,14.463347,120.881936,2020-03-25 16:00:00.000,2020-03-26 03:09:02.246
CDJ Hospital,0.0,1.0,,14.615867,120.980991,2020-03-25 16:00:00.000,2020-03-26 03:09:02.298
City Of General Trias Doctors Medical Center,0.0,1.0,,14.290936,120.904015,2020-03-25 16:00:00.000,2020-03-26 03:09:02.415
Clinica Antipolo Hospital,0.0,1.0,,14.589563,121.169854,2020-03-25 16:00:00.000,2020-03-26 03:09:02.466
Cornel Medical Center,0.0,1.0,,14.620711,121.197101,2020-03-25 16:00:00.000,2020-03-26 03:09:02.528
Daniel O. Mercado Medical Center,0.0,1.0,,14.079849,121.15068,2020-03-25 16:00:00.000,2020-03-26 03:09:02.587
De La Salle University Medical Center,0.0,1.0,,14.327171,120.94343,2020-03-25 16:00:00.000,2020-03-26 03:09:02.639
Dr. Damian Reyes Provincial Hospital,0.0,1.0,,13.443431,121.828353,2020-03-25 16:00:00.000,2020-03-26 03:09:02.690
Dr. Pablo  O. Torre Memorial Hospital,0.0,1.0,,10.682819,122.957969,2020-03-25 16:00:00.000,2020-03-26 03:09:02.742
"Golden Gate Batangas Hospital, Inc.",0.0,1.0,,13.757627,121.061744,2020-03-25 16:00:00.000,2020-03-26 03:09:02.875
Hospital of the Infant Jesus Medical Center,0.0,1.0,,14.614131,120.989255,2020-03-25 16:00:00.000,2020-03-26 03:09:02.935
"Las Pi単as Doctors Hospital, Inc.",0.0,1.0,,14.45588,120.994232,2020-03-25 16:00:00.000,2020-03-26 03:09:03.055
Lucena United Doctors Hospital,0.0,1.0,,13.947352,121.585181,2020-03-25 16:00:00.000,2020-03-26 03:09:03.105
Medical Center Para単aque,0.0,1.0,,14.45825,121.033376,2020-03-25 16:00:00.000,2020-03-26 03:09:03.180
Medical Center Taguig,0.0,1.0,,14.530641,121.065475,2020-03-25 16:00:00.000,2020-03-26 03:09:03.241
"Metro North Medical Center and Hospital, Inc.",0.0,1.0,,14.668849,121.033641,2020-03-25 16:00:00.000,2020-03-26 03:09:03.293
National Center for Mental Health,0.0,1.0,,14.581033,121.042788,2020-03-25 16:00:00.000,2020-03-26 03:09:03.353
Olivarez General Hospital,0.0,1.0,,14.479004,120.99721,2020-03-25 16:00:00.000,2020-03-26 03:09:03.413
Ospital ng Makati,0.0,1.0,,14.546389,121.061827,2020-03-25 16:00:00.000,2020-03-26 03:09:03.472
Our Lady of Mt. Carmel Medical Center,0.0,1.0,,15.182178,120.529903,2020-03-25 16:00:00.000,2020-03-26 03:09:03.697
Pasig City General Hospital,0.0,1.0,,14.5724,121.099201,2020-03-25 16:00:00.000,2020-03-26 03:09:03.746
Pasig Doctors Medical Center,0.0,1.0,,14.600683,121.092135,2020-03-25 16:00:00.000,2020-03-26 03:09:03.806
Perpetual Succor Hospital,0.0,1.0,,14.608177,120.992337,2020-03-25 16:00:00.000,2020-03-26 03:09:03.866
Quezon City General Hospital,0.0,1.0,,14.661098,121.018193,2020-03-25 16:00:00.000,2020-03-26 03:09:03.971
Rosario Maclang Bautista General Hospital,0.0,1.0,,14.686009,121.089385,2020-03-25 16:00:00.000,2020-03-26 03:09:04.031
Sacred Heart Hospital of Malolos,0.0,1.0,,14.851641,120.817766,2020-03-25 16:00:00.000,2020-03-26 03:09:04.134
San Pedro Calungsod Medical Center,0.0,1.0,,14.427836,120.894619,2020-03-25 16:00:00.000,2020-03-26 03:09:04.185
"San Pedro Doctors Hospital, Inc.",0.0,1.0,,14.365294,121.046611,2020-03-25 16:00:00.000,2020-03-26 03:09:04.236
Sinai Hospital,0.0,1.0,,14.31775,121.098356,2020-03-25 16:00:00.000,2020-03-26 03:09:04.287
St. Clare's Medical Center,0.0,1.0,,14.562972,121.001317,2020-03-25 16:00:00.000,2020-03-26 03:09:04.348
"Uni-Health Southwoods Hospital And Medical Center, Inc.",0.0,1.0,,14.331586,121.047944,2020-03-25 16:00:00.000,2020-03-26 03:09:04.449
West Metro Medical Center,0.0,1.0,,6.923408,122.07916,2020-03-25 16:00:00.000,2020-03-26 03:09:04.501
World Citi Medical Center,0.0,1.0,,14.627445,121.063224,2020-03-25 16:00:00.000,2020-03-26 03:09:04.560
