facility,puis,confirmed_cases,region,latitude,longitude,dashboard_last_updated,inserted_at
Research Institute for Tropical Medicine,24.0,20.0,NCR,14.4096347,121.0374245,2020-04-01 16:00:00.000,2020-04-01 23:20:42.731
St. Luke's Medical Center - Global City,23.0,71.0,NCR,14.555719,121.048688,2020-04-01 16:00:00.000,2020-04-01 23:20:42.794
THE MEDICAL CITY - ORTIGAS,23.0,0.0,NCR,14.5896199,121.0697968,2020-04-01 16:00:00.000,2020-04-01 23:20:42.858
ARMED FORCES OF THE PHILIPPINES HEALTH SERVICE COMMAND,19.0,0.0,NCR,14.63474,121.052451,2020-04-01 16:00:00.000,2020-04-01 23:20:42.917
Cardinal Santos Medical Center,14.0,48.0,NCR,14.5980042,121.0455297,2020-04-01 16:00:00.000,2020-04-01 23:20:42.968
Makati Medical Center,11.0,60.0,NCR,14.55938,121.014535,2020-04-01 16:00:00.000,2020-04-01 23:20:43.019
St. Luke's Medical Center - Quezon City,8.0,68.0,NCR,14.6223199,121.0238985,2020-04-01 16:00:00.000,2020-04-01 23:20:43.078
Asian Hospital and Medical Center,6.0,32.0,NCR,14.413416,121.043663,2020-04-01 16:00:00.000,2020-04-01 23:20:43.159
SAN JUAN DE DIOS EDUCATIONAL FOUNDATION INC HOSPITAL,5.0,0.0,NCR,14.538679,120.992679,2020-04-01 16:00:00.000,2020-04-01 23:20:43.219
Diliman Doctors Hospital,4.0,3.0,NCR,14.6685,121.076,2020-04-01 16:00:00.000,2020-04-01 23:20:43.278
Marikina Valley Medical Center,4.0,5.0,NCR,14.6348191,121.1039995,2020-04-01 16:00:00.000,2020-04-01 23:20:43.338
MANILA DOCTOR'S HOSPITAL,3.0,0.0,NCR,14.5817322,120.9829481,2020-04-01 16:00:00.000,2020-04-01 23:20:43.398
San Lazaro Hospital,3.0,19.0,NCR,14.61348,120.98095,2020-04-01 16:00:00.000,2020-04-01 23:20:43.464
Chinese General Hospital and Medical Center,2.0,21.0,NCR,14.626005,120.987801,2020-04-01 16:00:00.000,2020-04-01 23:20:43.523
Our Lady of Lourdes Hospital,2.0,7.0,NCR,14.507092,121.053702,2020-04-01 16:00:00.000,2020-04-01 23:20:43.582
Quirino Memorial Medical Center,2.0,11.0,NCR,14.622121,121.072133,2020-04-01 16:00:00.000,2020-04-01 23:20:43.641
SANTA ANA HOSPITAL - MANILA,2.0,0.0,NCR,14.583602,121.016192,2020-04-01 16:00:00.000,2020-04-01 23:20:43.702
TRICITY MEDICAL CENTER,2.0,0.0,NCR,14.5762402,121.084877,2020-04-01 16:00:00.000,2020-04-01 23:20:43.762
UNIHEALTH PARANAQUE HOSPITAL,2.0,0.0,NCR,14.4645782,121.0197924,2020-04-01 16:00:00.000,2020-04-01 23:20:43.821
Victor R. Potenciano Medical Center,2.0,8.0,NCR,14.583571,121.028207,2020-04-01 16:00:00.000,2020-04-01 23:20:43.880
Adventist Medical Center - Manila,1.0,1.0,NCR,14.5559937,120.995464,2020-04-01 16:00:00.000,2020-04-01 23:20:43.933
DR. JOSE N. RODRIGUEZ MEMORIAL HOSPITAL AND SANITARIUM,1.0,0.0,NCR,14.766856,121.06442,2020-04-01 16:00:00.000,2020-04-01 23:20:43.984
East Avenue Medical Center,1.0,10.0,NCR,14.6423301,121.0480834,2020-04-01 16:00:00.000,2020-04-01 23:20:44.146
Fatima University Medical Center,1.0,2.0,NCR,14.678054,120.980208,2020-04-01 16:00:00.000,2020-04-01 23:20:44.205
LAS PINAS GENERAL HOSPITAL AND SATELITE TRAUMA CENTER,1.0,0.0,NCR,14.4717741,120.9740679,2020-04-01 16:00:00.000,2020-04-01 23:20:44.264
Lung Center of the Philippines,1.0,50.0,NCR,14.6478365,121.0456111,2020-04-01 16:00:00.000,2020-04-01 23:20:44.315
Medical Center Manila,1.0,4.0,NCR,14.582394,120.985338,2020-04-01 16:00:00.000,2020-04-01 23:20:44.375
Metropolitan Medical Center,1.0,7.0,NCR,14.60963,120.978641,2020-04-01 16:00:00.000,2020-04-01 23:20:44.427
Rizal Medical Center,1.0,8.0,NCR,14.564082,121.0658777,2020-04-01 16:00:00.000,2020-04-01 23:20:44.486
University of Sto. Tomas Hospital,1.0,12.0,NCR,14.610995,120.990039,2020-04-01 16:00:00.000,2020-04-01 23:20:44.537
UNIVERSITY OF THE EAST RAMON MAGSAYASY MEMORIAL MEDICAL CENTER,1.0,0.0,NCR,14.6069038,121.0203918,2020-04-01 16:00:00.000,2020-04-01 23:20:44.596
REGION 1 MEDICAL CENTER,11.0,0.0,Ilocos Region,16.048475,120.34189,2020-04-01 16:00:00.000,2020-04-01 23:20:44.748
ILOCOS SUR PROVINCIAL HOSPITAL - GABRIELA SILANG,4.0,0.0,Ilocos Region,17.553185,120.379761,2020-04-01 16:00:00.000,2020-04-01 23:20:44.821
LORMA MEDICAL CENTER,4.0,0.0,Ilocos Region,16.6315112,120.3177018,2020-04-01 16:00:00.000,2020-04-01 23:20:44.881
LA UNION MEDICAL CENTER,2.0,0.0,Ilocos Region,16.3469685,120.3633779,2020-04-01 16:00:00.000,2020-04-01 23:20:44.975
DAGUPAN DOCTORS VILLAFLOR HOSPITAL,1.0,0.0,Ilocos Region,16.037572,120.347093,2020-04-01 16:00:00.000,2020-04-01 23:20:45.025
Ilocos Training and Regional Medical Center,1.0,1.0,Ilocos Region,16.590987,120.316968,2020-04-01 16:00:00.000,2020-04-01 23:20:45.086
PANGASINAN DOCTORS HOSPITAL,1.0,0.0,Ilocos Region,15.9403176,120.3449821,2020-04-01 16:00:00.000,2020-04-01 23:20:45.146
Southern Isabela Medical Center,14.0,1.0,Cagayan Valley,16.680734,121.546678,2020-04-01 16:00:00.000,2020-04-01 23:20:45.206
REGION 2 TRAUMA AND MEDICAL CENTER,7.0,0.0,Cagayan Valley,16.4833227,121.134181,2020-04-01 16:00:00.000,2020-04-01 23:20:45.265
CAGAYAN VALLEY MEDICAL CENTER (CVMC),5.0,0.0,Cagayan Valley,17.657142,121.745972,2020-04-01 16:00:00.000,2020-04-01 23:20:45.317
CAUAYAN MEDICAL SPECIALIST HOSPITAL,1.0,0.0,Cagayan Valley,16.935884,121.770443,2020-04-01 16:00:00.000,2020-04-01 23:20:45.378
CENTRO MEDICO,4.0,0.0,Central Luzon,14.672753,120.524379,2020-04-01 16:00:00.000,2020-04-01 23:20:45.437
Jose B. Lingad Memorial Regional Hospital,3.0,4.0,Central Luzon,15.034472,120.684639,2020-04-01 16:00:00.000,2020-04-01 23:20:45.623
JECSON MEDICAL CENTER,2.0,0.0,Central Luzon,15.4911435,120.5974164,2020-04-01 16:00:00.000,2020-04-01 23:20:45.674
Bataan St. Joseph Hospital and Medical Center,1.0,1.0,Central Luzon,14.6814159,120.5415323,2020-04-01 16:00:00.000,2020-04-01 23:20:45.733
DR. PAULINO J GARCIA MEMORIAL RESEARCH AND MEDICAL CENTER,1.0,0.0,Central Luzon,15.489261,120.972506,2020-04-01 16:00:00.000,2020-04-01 23:20:45.793
JAMES L. GORDON MEMORIAL HOSPITAL,1.0,0.0,Central Luzon,14.826389,120.280028,2020-04-01 16:00:00.000,2020-04-01 23:20:45.859
PAMPANGA PREMIER MEDICAL CENTER,1.0,0.0,Central Luzon,14.960325,120.759348,2020-04-01 16:00:00.000,2020-04-01 23:20:45.911
Premiere Medical Center,1.0,3.0,Central Luzon,14.4886025,120.9929305,2020-04-01 16:00:00.000,2020-04-01 23:20:45.971
RAMOS GENERAL HOSPITAL,1.0,0.0,Central Luzon,15.4849139,120.5929758,2020-04-01 16:00:00.000,2020-04-01 23:20:46.031
Tarlac Provincial Hospital,1.0,2.0,Central Luzon,15.4750405,120.5865492,2020-04-01 16:00:00.000,2020-04-01 23:20:46.090
Qualimed - Sta. Rosa Hospital,2.0,1.0,CALABARZON,14.23239,121.05266,2020-04-01 16:00:00.000,2020-04-01 23:20:46.186
MARY MEDIATRIX MEDICAL CENTER,1.0,0.0,CALABARZON,13.943517,121.151582,2020-04-01 16:00:00.000,2020-04-01 23:20:46.246
ORTIGAS HOSPITAL AND HEALTHCARE CENTER,1.0,0.0,CALABARZON,14.585762,121.117815,2020-04-01 16:00:00.000,2020-04-01 23:20:46.305
SILANG SPECIALIST MEDICAL CENTER,1.0,0.0,CALABARZON,14.23456,120.972698,2020-04-01 16:00:00.000,2020-04-01 23:20:46.355
CULION SANITARIUM,3.0,0.0,MIMAROPA,11.89178,120.02352,2020-04-01 16:00:00.000,2020-04-01 23:20:46.414
OSPITAL NG PALAWAN,3.0,0.0,MIMAROPA,9.74804,118.74415,2020-04-01 16:00:00.000,2020-04-01 23:20:46.474
LUBANG DISTRICT HOSPITAL,2.0,0.0,MIMAROPA,13.853591,120.107974,2020-04-01 16:00:00.000,2020-04-01 23:20:46.534
OCCIDENTAL MINDORO PROVINCIAL HOSPITAL,2.0,0.0,MIMAROPA,13.23024,120.58605,2020-04-01 16:00:00.000,2020-04-01 23:20:46.586
SAN SEBASTIAN DISTRICT HOSPITAL,2.0,0.0,MIMAROPA,12.84571,120.78698,2020-04-01 16:00:00.000,2020-04-01 23:20:46.645
CAMP GENERAL ARTEMIO RICARTE STATION HOSPITAL,1.0,0.0,MIMAROPA,9.746667,118.770841,2020-04-01 16:00:00.000,2020-04-01 23:20:46.706
DAMIAN PROV HOSPITAL,1.0,0.0,MIMAROPA,13.442819,121.82898,2020-04-01 16:00:00.000,2020-04-01 23:20:46.765
ISIAH HOSPITAL,1.0,0.0,MIMAROPA,12.385066,121.986913,2020-04-01 16:00:00.000,2020-04-01 23:20:46.825
PALAWAN MEDICAL MISSION MULTIPURPOSE COOPERATIVE,1.0,0.0,MIMAROPA,9.73538,118.73369,2020-04-01 16:00:00.000,2020-04-01 23:20:46.884
BICOL MEDICAL CENTER,1.0,0.0,Bicol Region,13.622059,123.198944,2020-04-01 16:00:00.000,2020-04-01 23:20:46.945
BICOL REGIONAL TRAINING AND TEACHING HOSPITAL,1.0,0.0,Bicol Region,13.310798,123.897777,2020-04-01 16:00:00.000,2020-04-01 23:20:47.005
THE MEDICAL CITY ILOILO,3.0,0.0,Western Visayas,10.699607,122.54303,2020-04-01 16:00:00.000,2020-04-01 23:20:47.065
Western Visayas Medical Center,3.0,2.0,Western Visayas,10.718087,122.540385,2020-04-01 16:00:00.000,2020-04-01 23:20:47.117
ROXAS MEMORIAL PROVINCIAL HOSPITAL,1.0,0.0,Western Visayas,11.588119,122.752371,2020-04-01 16:00:00.000,2020-04-01 23:20:47.177
THE HEALTH CENTRUM HOSPITAL,1.0,0.0,Western Visayas,11.581528,122.768203,2020-04-01 16:00:00.000,2020-04-01 23:20:47.237
Chong Hua Hospital,9.0,9.0,Central Visayas,10.309312,123.890621,2020-04-01 16:00:00.000,2020-04-01 23:20:47.297
Chong Hua Hospital Mandaue,7.0,3.0,Central Visayas,10.323323,123.931217,2020-04-01 16:00:00.000,2020-04-01 23:20:47.558
EVERSLEY CHILDS SANITARIUM,6.0,0.0,Central Visayas,10.3663702,123.9537125,2020-04-01 16:00:00.000,2020-04-01 23:20:47.618
GOV. CELESTINO GALLARES MEMORIAL HOSPITAL,3.0,0.0,Central Visayas,9.644068,123.856863,2020-04-01 16:00:00.000,2020-04-01 23:20:47.678
SIQUIJOR PROVINCIAL HOSPITAL,3.0,0.0,Central Visayas,9.219553,123.517105,2020-04-01 16:00:00.000,2020-04-01 23:20:47.737
VICENTE SOTTO MEMORIAL MEDICAL CENTER,2.0,0.0,Central Visayas,10.3080552,123.892631,2020-04-01 16:00:00.000,2020-04-01 23:20:47.788
ALLEGIANT REGIONAL CARE HOSPITALS,1.0,0.0,Central Visayas,10.282484,123.990058,2020-04-01 16:00:00.000,2020-04-01 23:20:47.847
CEBU SOUTH GENERAL HOSPITAL,1.0,0.0,Central Visayas,10.2322176,123.7714821,2020-04-01 16:00:00.000,2020-04-01 23:20:47.899
MACTAN DOCTORS' HOSPITAL,1.0,0.0,Central Visayas,10.2904036,123.9669379,2020-04-01 16:00:00.000,2020-04-01 23:20:47.959
SAINT VINCENT GENERAL HOSPITAL,1.0,0.0,Central Visayas,10.30155,123.894724,2020-04-01 16:00:00.000,2020-04-01 23:20:48.018
ST. ANTHONY MOTHER AND CHILD HOSPITAL,1.0,0.0,Central Visayas,10.286327,123.871411,2020-04-01 16:00:00.000,2020-04-01 23:20:48.079
Eastern Visayas Regional Medical Center,4.0,1.0,Eastern Visayas,11.251723,125.004292,2020-04-01 16:00:00.000,2020-04-01 23:20:48.129
"CATARMAN DOCTORS HOSPITAL INC.,",1.0,0.0,Eastern Visayas,12.497957,124.647924,2020-04-01 16:00:00.000,2020-04-01 23:20:48.188
ORAS DISTRICT HOSPITAL,1.0,0.0,Eastern Visayas,12.1441026,125.4369005,2020-04-01 16:00:00.000,2020-04-01 23:20:48.377
PNP REGION 8,1.0,0.0,Eastern Visayas,11.184526,124.990378,2020-04-01 16:00:00.000,2020-04-01 23:20:48.437
REMEDIOS TRINIDAD ROMUALDEZ HOSPITAL,1.0,0.0,Eastern Visayas,11.212023,124.999876,2020-04-01 16:00:00.000,2020-04-01 23:20:48.497
MAYOR HILARION A. RAMIRO SR. MEDICAL CENTER,2.0,0.0,Northern Mindanao,8.1696196,123.8586578,2020-04-01 16:00:00.000,2020-04-01 23:20:48.603
Northern Mindanao Medical Center,2.0,3.0,Northern Mindanao,8.485676,124.649264,2020-04-01 16:00:00.000,2020-04-01 23:20:48.662
MERCY COMMUNITY HOSPITAL INC.,1.0,0.0,Northern Mindanao,8.20825,124.2404099,2020-04-01 16:00:00.000,2020-04-01 23:20:48.722
RHU BAROY,1.0,0.0,Northern Mindanao,8.0258303,123.7783432,2020-04-01 16:00:00.000,2020-04-01 23:20:48.772
Davao Regional Medical Center,11.0,10.0,Davao Region,7.422318,125.828438,2020-04-01 16:00:00.000,2020-04-01 23:20:48.893
Southern Philippines Medical Center,8.0,34.0,Davao Region,7.099528,125.619416,2020-04-01 16:00:00.000,2020-04-01 23:20:48.952
ST. ELIZABETH HOSPITAL,4.0,0.0,SOCCSKSARGEN,6.118547,125.179903,2020-04-01 16:00:00.000,2020-04-01 23:20:49.014
Cotabato Regional and Medical Center,2.0,1.0,SOCCSKSARGEN,7.2000499,124.236763,2020-04-01 16:00:00.000,2020-04-01 23:20:49.073
Cotabato Regional and Medical Center,1.0,1.0,SOCCSKSARGEN,7.2000499,124.236763,2020-04-01 16:00:00.000,2020-04-01 23:20:49.272
SOUTH COTABATO PROVINCIAL HOSPITAL,2.0,0.0,SOCCSKSARGEN,6.4931698,124.8396072,2020-04-01 16:00:00.000,2020-04-01 23:20:49.152
ALLAH VALLEY MEDICAL SPECIALIST INC.,1.0,0.0,SOCCSKSARGEN,6.4784999,124.8674011,2020-04-01 16:00:00.000,2020-04-01 23:20:49.212
DR. ARTURO PINGGOY MEDICAL CENTER,1.0,0.0,SOCCSKSARGEN,6.5053201,124.8370514,2020-04-01 16:00:00.000,2020-04-01 23:20:49.343
HOWARD HUBBARD MEMORIAL HOSPITAL,1.0,0.0,SOCCSKSARGEN,6.2459898,125.0946198,2020-04-01 16:00:00.000,2020-04-01 23:20:49.402
St. Louis Hospital,1.0,1.0,SOCCSKSARGEN,6.67869,124.6671371,2020-04-01 16:00:00.000,2020-04-01 23:20:49.462
Amai Pakpak Medical Center,6.0,2.0,BARMM,8.004503,124.283897,2020-04-01 16:00:00.000,2020-04-01 23:20:49.521
BENGUET GENERAL HOSPITAL,5.0,0.0,CAR,16.4508377,120.5895316,2020-04-01 16:00:00.000,2020-04-01 23:20:49.582
Baguio General Hospital And Medical Center,4.0,6.0,CAR,16.401006,120.5956721,2020-04-01 16:00:00.000,2020-04-01 23:20:49.641
Notre Dame De Chartres Hospital,3.0,1.0,CAR,16.4156176,120.5959821,2020-04-01 16:00:00.000,2020-04-01 23:20:49.700
CONNER DISTRICT HOSPITAL,2.0,0.0,CAR,17.800328,121.322549,2020-04-01 16:00:00.000,2020-04-01 23:20:49.760
FAR NORTH LUZON GENERAL HOSPITAL AND TRAINING CENTER,1.0,0.0,CAR,18.3386176,121.3838821,2020-04-01 16:00:00.000,2020-04-01 23:20:49.820
JUAN DUYAN MEMORIAL HOSPITAL,1.0,0.0,CAR,17.518614,121.582505,2020-04-01 16:00:00.000,2020-04-01 23:20:49.879
KALINGA PROVINCIAL HOSPITAL,1.0,0.0,CAR,17.4102,121.439935,2020-04-01 16:00:00.000,2020-04-01 23:20:49.938
KAPANGAN RHU,1.0,0.0,CAR,16.576121,120.607192,2020-04-01 16:00:00.000,2020-04-01 23:20:49.998
LANGIDEN RHU,1.0,0.0,CAR,17.575766,120.564408,2020-04-01 16:00:00.000,2020-04-01 23:20:50.168
PINES CITY DOCTORS HOSPITAL,1.0,0.0,CAR,16.426542,120.594647,2020-04-01 16:00:00.000,2020-04-01 23:20:50.228
PINUKPUK DISTRICT HOSPITAL,1.0,0.0,CAR,17.6129865,121.4097436,2020-04-01 16:00:00.000,2020-04-01 23:20:50.288
SAINT LOUIS UNIVERSITY HOSPITAL OF SACRED HEART,1.0,0.0,CAR,16.4170577,120.5977415,2020-04-01 16:00:00.000,2020-04-01 23:20:50.890
ADELA SERRA TY MEMORIAL MEDICAL CENTER,2.0,0.0,Caraga,9.068553,126.190498,2020-04-01 16:00:00.000,2020-04-01 23:20:50.959
CARAGA REGIONAL HOSPITAL,1.0,0.0,Caraga,9.784281,125.489826,2020-04-01 16:00:00.000,2020-04-01 23:20:51.020
For validation,0.0,1418.0,,14.615867,120.980991,2020-04-01 16:00:00.000,2020-04-01 23:20:51.532
The Medical City,0.0,52.0,,14.58989,121.069315,2020-04-01 16:00:00.000,2020-04-01 23:20:51.775
Manila Doctors Hospital,0.0,23.0,,14.582028,120.982657,2020-04-01 16:00:00.000,2020-04-01 23:20:52.088
"University of the East Ramon Magsaysay Memorial Medical Center, Inc.",0.0,13.0,,14.60703,121.020581,2020-04-01 16:00:00.000,2020-04-01 23:20:52.348
Santa Ana Hospital,0.0,12.0,,14.583621,121.016425,2020-04-01 16:00:00.000,2020-04-01 23:20:52.408
Philippine Heart Center,0.0,11.0,,14.64407,121.048067,2020-04-01 16:00:00.000,2020-04-01 23:20:52.531
Cagayan Valley Medical Center,0.0,9.0,,17.656516,121.746768,2020-04-01 16:00:00.000,2020-04-01 23:20:52.763
New Era General Hospital,0.0,9.0,,14.664085,121.066728,2020-04-01 16:00:00.000,2020-04-01 23:20:52.883
UP-Philippine General Hospital,0.0,9.0,,14.57768,120.985847,2020-04-01 16:00:00.000,2020-04-01 23:20:52.942
Capitol Medical Center,0.0,7.0,,14.634239,121.022776,2020-04-01 16:00:00.000,2020-04-01 23:20:53.119
FEU - Dr. Nicanor Reyes Medical Foundation,0.0,6.0,,14.698851,121.067192,2020-04-01 16:00:00.000,2020-04-01 23:20:53.359
Las Piñas General Hospital and Satellite Trauma Center,0.0,5.0,,14.471649,120.973822,2020-04-01 16:00:00.000,2020-04-01 23:20:53.419
Perpetual Succor Hospital,0.0,5.0,,14.608212,120.992395,2020-04-01 16:00:00.000,2020-04-01 23:20:53.531
World Citi Medical Center,0.0,5.0,,14.627445,121.063224,2020-04-01 16:00:00.000,2020-04-01 23:20:53.583
Cebu Doctors' University Hospital,0.0,4.0,,10.314829,123.891928,2020-04-01 16:00:00.000,2020-04-01 23:20:53.658
Dr. Jose N. Rodriguez Memorial Hospital,0.0,4.0,,14.766822,121.065003,2020-04-01 16:00:00.000,2020-04-01 23:20:53.719
Providence Hospital,0.0,4.0,,14.640958,121.031769,2020-04-01 16:00:00.000,2020-04-01 23:20:53.898
San Juan Medical Center,0.0,4.0,,14.606611,121.023542,2020-04-01 16:00:00.000,2020-04-01 23:20:54.002
Veterans Memorial Medical Center,0.0,4.0,,14.65616,121.04012,2020-04-01 16:00:00.000,2020-04-01 23:20:54.062
"ACE Dumaguete Doctors, Inc.",0.0,3.0,,9.317444,123.296207,2020-04-01 16:00:00.000,2020-04-01 23:20:54.123
Dr. Paulino J. Garcia Memorial Research and Medical Center,0.0,3.0,,15.48925,120.972613,2020-04-01 16:00:00.000,2020-04-01 23:20:54.318
Quezon City General Hospital,0.0,3.0,,14.661098,121.018193,2020-04-01 16:00:00.000,2020-04-01 23:20:54.491
"San Juan De Dios Educational Foundation, Inc.",0.0,3.0,,14.538679,120.992679,2020-04-01 16:00:00.000,2020-04-01 23:20:54.558
Commonwealth Hospital and Medical Center,0.0,2.0,,14.731221,121.060665,2020-04-01 16:00:00.000,2020-04-01 23:20:54.682
Fe Del Mundo Medical Center,0.0,2.0,,14.620412,121.009296,2020-04-01 16:00:00.000,2020-04-01 23:20:54.801
Good Samaritan Hospital,0.0,2.0,,15.4918609,120.9734549,2020-04-01 16:00:00.000,2020-04-01 23:20:54.864
Hospital of the Infant Jesus Medical Center,0.0,2.0,,14.614131,120.989255,2020-04-01 16:00:00.000,2020-04-01 23:20:54.925
Jecsons Medical Center,0.0,2.0,,15.4911435,120.5974164,2020-04-01 16:00:00.000,2020-04-01 23:20:54.985
Jose R. Reyes Memorial Medical Center,0.0,2.0,,14.61429,120.982136,2020-04-01 16:00:00.000,2020-04-01 23:20:55.036
"Las Piñas Doctors Hospital, Inc.",0.0,2.0,,14.45588,120.994232,2020-04-01 16:00:00.000,2020-04-01 23:20:55.102
Mandaluyong City Medical Center,0.0,2.0,,14.576313,121.035279,2020-04-01 16:00:00.000,2020-04-01 23:20:55.161
"Metro North Medical Center and Hospital, Inc.",0.0,2.0,,14.668849,121.033641,2020-04-01 16:00:00.000,2020-04-01 23:20:55.228
National Center for Mental Health,0.0,2.0,,14.581033,121.042788,2020-04-01 16:00:00.000,2020-04-01 23:20:55.287
National Kidney and Transplant Institute,0.0,2.0,,14.646807,121.047243,2020-04-01 16:00:00.000,2020-04-01 23:20:55.340
Pasay City General Hospital,0.0,2.0,,14.5492298,121.0006039,2020-04-01 16:00:00.000,2020-04-01 23:20:55.400
Taguig Pateros District Hospital,0.0,2.0,,14.510802,121.034127,2020-04-01 16:00:00.000,2020-04-01 23:20:55.451
The Medical City - South Luzon,0.0,2.0,,14.248433,121.067344,2020-04-01 16:00:00.000,2020-04-01 23:20:55.552
"Unihealth Southwoods Hospital And Medical Center, Inc.",0.0,2.0,,14.331586,121.047944,2020-04-01 16:00:00.000,2020-04-01 23:20:55.611
Adventist Medical Center - Bacolod,0.0,1.0,,10.647646,122.949611,2020-04-01 16:00:00.000,2020-04-01 23:20:55.723
Aklan Training Center,0.0,1.0,,11.720665,122.380689,2020-04-01 16:00:00.000,2020-04-01 23:20:55.841
"Allied Care Experts (ACE) Medical Center - Baypointe, Inc.",0.0,1.0,,14.82392,120.27229,2020-04-01 16:00:00.000,2020-04-01 23:20:55.892
Amang Rodriguez Memorial Medical Center,0.0,1.0,,14.635884,121.098267,2020-04-01 16:00:00.000,2020-04-01 23:20:55.943
Angono Medics Hospital,0.0,1.0,,14.531272,121.152922,2020-04-01 16:00:00.000,2020-04-01 23:20:55.994
Batangas Health Care Hospital - Jesus Of Nazareth,0.0,1.0,,13.759382,121.076785,2020-04-01 16:00:00.000,2020-04-01 23:20:56.147
Bernardino General Hospital,0.0,1.0,,14.7003371,121.0348788,2020-04-01 16:00:00.000,2020-04-01 23:20:56.206
Binakayan Hospital And Medical Center,0.0,1.0,,14.451741,120.926132,2020-04-01 16:00:00.000,2020-04-01 23:20:56.258
Central Luzon Doctors Hospital,0.0,1.0,,15.4779292,120.5873994,2020-04-01 16:00:00.000,2020-04-01 23:20:56.319
"Centro Medico De Santisimo Rosario, Inc.",0.0,1.0,,14.672753,120.524379,2020-04-01 16:00:00.000,2020-04-01 23:20:56.374
Daniel O. Mercado Medical Center,0.0,1.0,,14.079849,121.15068,2020-04-01 16:00:00.000,2020-04-01 23:20:56.493
De La Salle University Medical Center,0.0,1.0,,14.327171,120.94343,2020-04-01 16:00:00.000,2020-04-01 23:20:56.552
Delos Santos Medical Center,0.0,1.0,,14.620153,121.017477,2020-04-01 16:00:00.000,2020-04-01 23:20:56.603
Divine Grace Medical Center,0.0,1.0,,14.39785,120.868043,2020-04-01 16:00:00.000,2020-04-01 23:20:56.663
Dr. Pablo  O. Torre Memorial Hospital,0.0,1.0,,10.682819,122.957969,2020-04-01 16:00:00.000,2020-04-01 23:20:56.714
Enrique Henry M. Cojuangco Memorial District Hospital,0.0,1.0,,15.733082,120.572783,2020-04-01 16:00:00.000,2020-04-01 23:20:56.834
Laguna Doctors Hospital,0.0,1.0,,14.272595,121.418975,2020-04-01 16:00:00.000,2020-04-01 23:20:57.003
"Loving Mother General Hospital And Diagnostic Center, Inc.",0.0,1.0,,15.49289,120.59337,2020-04-01 16:00:00.000,2020-04-01 23:20:57.062
Lucena United Doctors Hospital,0.0,1.0,,13.947352,121.585181,2020-04-01 16:00:00.000,2020-04-01 23:20:57.122
"Medical Center Muntinlupa, Inc.",0.0,1.0,,14.394956,121.045179,2020-04-01 16:00:00.000,2020-04-01 23:20:57.173
N.L. Villa Memorial Medical Center,0.0,1.0,,13.938685,121.165651,2020-04-01 16:00:00.000,2020-04-01 23:20:57.249
National Children's Hospital,0.0,1.0,,14.6204213,121.0210078,2020-04-01 16:00:00.000,2020-04-01 23:20:57.309
New Clark City,0.0,1.0,,15.343355,120.53478,2020-04-01 16:00:00.000,2020-04-01 23:20:57.359
Ospital Ng Maynila Medical Center,0.0,1.0,,14.56401,120.98645,2020-04-01 16:00:00.000,2020-04-01 23:20:57.468
Our Lady of Mt. Carmel Medical Center,0.0,1.0,,15.182178,120.529903,2020-04-01 16:00:00.000,2020-04-01 23:20:57.559
Pasig City General Hospital,0.0,1.0,,14.5724,121.099201,2020-04-01 16:00:00.000,2020-04-01 23:20:57.618
Perpetual Help Medical Center - Biñan,0.0,1.0,,14.330259,121.085064,2020-04-01 16:00:00.000,2020-04-01 23:20:57.678
Pope John Paul II Hospital And Medical Center,0.0,1.0,,14.443418,120.995954,2020-04-01 16:00:00.000,2020-04-01 23:20:57.729
Quezon City Health Department,0.0,1.0,,14.646154,121.052315,2020-04-01 16:00:00.000,2020-04-01 23:20:57.974
Quezon Medical Center,0.0,1.0,,13.942133,121.612553,2020-04-01 16:00:00.000,2020-04-01 23:20:58.034
Region II Trauma And Medical Center,0.0,1.0,,16.483175,121.134176,2020-04-01 16:00:00.000,2020-04-01 23:20:58.093
Rosario Maclang Bautista General Hospital,0.0,1.0,,14.686009,121.089385,2020-04-01 16:00:00.000,2020-04-01 23:20:58.759
San Pedro Calungsod Medical Center,0.0,1.0,,14.427836,120.894619,2020-04-01 16:00:00.000,2020-04-01 23:20:58.821
"San Pedro Doctors Hospital, Inc.",0.0,1.0,,14.365294,121.046611,2020-04-01 16:00:00.000,2020-04-01 23:20:58.881
"Señor Sto. Niño Hospital, Inc.",0.0,1.0,,15.68908,120.415122,2020-04-01 16:00:00.000,2020-04-01 23:20:58.942
Skyline Hospital And Medical Center,0.0,1.0,,14.798147,121.0704545,2020-04-01 16:00:00.000,2020-04-01 23:20:59.002
The Medical City - Iloilo,0.0,1.0,,10.699528,122.542836,2020-04-01 16:00:00.000,2020-04-01 23:20:59.172
Unihealth Parañaque Hospital And Medical Center,0.0,1.0,,14.4645782,121.0197924,2020-04-01 16:00:00.000,2020-04-01 23:20:59.233
University Of Cebu Medical Center,0.0,1.0,,10.320491,123.930893,2020-04-01 16:00:00.000,2020-04-01 23:20:59.285
Valenzuela Medical Center,0.0,1.0,,14.689624,120.978473,2020-04-01 16:00:00.000,2020-04-01 23:20:59.381
Victoriano Luna Medical Center,0.0,1.0,,14.6357147,121.0526552,2020-04-01 16:00:00.000,2020-04-01 23:20:59.441
