facility,puis,confirmed_cases,region,latitude,longitude,dashboard_last_updated,inserted_at
Research Institute For Tropical Medicine,24.0,33.0,NCR,14.4096347,121.0374245,2020-03-24 16:00:00.000,2020-03-24 20:47:18.157
St. Luke'S Medical Center - Global City,23.0,36.0,NCR,14.555719,121.048688,2020-03-24 16:00:00.000,2020-03-24 20:47:18.327
The Medical City - Ortigas,23.0,44.0,NCR,14.5896199,121.0697968,2020-03-24 16:00:00.000,2020-03-24 20:47:18.441
ARMED FORCES OF THE PHILIPPINES HEALTH SERVICE COMMAND,19.0,0.0,NCR,14.63474,121.052451,2020-03-24 16:00:00.000,2020-03-24 20:47:18.543
Cardinal Santos Medical Center,14.0,29.0,NCR,14.5980042,121.0455297,2020-03-24 16:00:00.000,2020-03-24 20:47:18.656
Makati Medical Center,11.0,33.0,NCR,14.55938,121.014535,2020-03-24 16:00:00.000,2020-03-24 20:47:18.780
St. Luke's Medical Center - Quezon City,8.0,49.0,NCR,14.6223199,121.0238985,2020-03-24 16:00:00.000,2020-03-24 20:47:18.923
Asian Hospital And Medical Center,6.0,18.0,NCR,14.413416,121.043663,2020-03-24 16:00:00.000,2020-03-24 20:47:19.139
SAN JUAN DE DIOS EDUCATIONAL FOUNDATION INC HOSPITAL,5.0,0.0,NCR,14.538679,120.992679,2020-03-24 16:00:00.000,2020-03-24 20:47:19.239
Diliman Doctors Hospital,4.0,3.0,NCR,14.6685,121.076,2020-03-24 16:00:00.000,2020-03-24 20:47:19.409
Marikina Valley Medical Center,4.0,2.0,NCR,14.6348191,121.1039995,2020-03-24 16:00:00.000,2020-03-24 20:47:19.596
MANILA DOCTOR'S HOSPITAL,3.0,0.0,NCR,14.5817322,120.9829481,2020-03-24 16:00:00.000,2020-03-24 20:47:19.722
San Lazaro Hospital,3.0,13.0,NCR,14.61348,120.98095,2020-03-24 16:00:00.000,2020-03-24 20:47:19.959
Chinese General Hospital And Medical Center,2.0,8.0,NCR,14.626005,120.987801,2020-03-24 16:00:00.000,2020-03-24 20:47:20.078
Our Lady of Lourdes Hospital,2.0,2.0,NCR,14.507092,121.053702,2020-03-24 16:00:00.000,2020-03-24 20:47:20.198
Quirino Memorial Medical Center,2.0,2.0,NCR,14.622121,121.072133,2020-03-24 16:00:00.000,2020-03-24 20:47:20.363
SANTA ANA HOSPITAL - MANILA,2.0,0.0,NCR,14.583602,121.016192,2020-03-24 16:00:00.000,2020-03-24 20:47:20.475
TRICITY MEDICAL CENTER,2.0,0.0,NCR,14.5762402,121.084877,2020-03-24 16:00:00.000,2020-03-24 20:47:20.603
UNIHEALTH PARANAQUE HOSPITAL,2.0,0.0,NCR,14.4645782,121.0197924,2020-03-24 16:00:00.000,2020-03-24 20:47:20.717
Victor R. Potenciano Medical Center,2.0,6.0,NCR,14.583571,121.028207,2020-03-24 16:00:00.000,2020-03-24 20:47:20.928
ADVENTIST MEDICAL CENTER - MANILA,1.0,0.0,NCR,14.5559937,120.995464,2020-03-24 16:00:00.000,2020-03-24 20:47:21.136
Dr. Jose N. Rodriguez Memorial Hospital and Sanitarium,1.0,2.0,NCR,14.766856,121.06442,2020-03-24 16:00:00.000,2020-03-24 20:47:21.323
East Avenue Medical Center,1.0,3.0,NCR,14.6423301,121.0480834,2020-03-24 16:00:00.000,2020-03-24 20:47:21.429
Fatima University Medical Center,1.0,1.0,NCR,14.678054,120.980208,2020-03-24 16:00:00.000,2020-03-24 20:47:21.543
LAS PINAS GENERAL HOSPITAL AND SATELITE TRAUMA CENTER,1.0,0.0,NCR,14.4717741,120.9740679,2020-03-24 16:00:00.000,2020-03-24 20:47:21.654
Lung Center Of The Philippines,1.0,19.0,NCR,14.6478365,121.0456111,2020-03-24 16:00:00.000,2020-03-24 20:47:21.892
Medical Center Manila,1.0,3.0,NCR,14.582394,120.985338,2020-03-24 16:00:00.000,2020-03-24 20:47:22.110
Metropolitan Medical Center,1.0,4.0,NCR,14.60963,120.978641,2020-03-24 16:00:00.000,2020-03-24 20:47:22.245
Rizal Medical Center,1.0,6.0,NCR,14.564082,121.0658777,2020-03-24 16:00:00.000,2020-03-24 20:47:22.395
University of Sto. Tomas Hospital,1.0,8.0,NCR,14.610995,120.990039,2020-03-24 16:00:00.000,2020-03-24 20:47:22.508
UNIVERSITY OF THE EAST RAMON MAGSAYASY MEMORIAL MEDICAL CENTER,1.0,0.0,NCR,14.6069038,121.0203918,2020-03-24 16:00:00.000,2020-03-24 20:47:22.621
REGION 1 MEDICAL CENTER,11.0,0.0,Ilocos Region,16.048475,120.34189,2020-03-24 16:00:00.000,2020-03-24 20:47:23.260
ILOCOS SUR PROVINCIAL HOSPITAL - GABRIELA SILANG,4.0,0.0,Ilocos Region,17.553185,120.379761,2020-03-24 16:00:00.000,2020-03-24 20:47:23.434
LORMA MEDICAL CENTER,4.0,0.0,Ilocos Region,16.6315112,120.3177018,2020-03-24 16:00:00.000,2020-03-24 20:47:23.999
La Union Medical Center,2.0,2.0,Ilocos Region,16.3469685,120.3633779,2020-03-24 16:00:00.000,2020-03-24 20:47:24.194
DAGUPAN DOCTORS VILLAFLOR HOSPITAL,1.0,0.0,Ilocos Region,16.037572,120.347093,2020-03-24 16:00:00.000,2020-03-24 20:47:24.481
Ilocos Training and Regional Medical Center,1.0,1.0,Ilocos Region,16.590987,120.316968,2020-03-24 16:00:00.000,2020-03-24 20:47:24.968
PANGASINAN DOCTORS HOSPITAL,1.0,0.0,Ilocos Region,15.9403176,120.3449821,2020-03-24 16:00:00.000,2020-03-24 20:47:25.095
SOUTHERN ISABELA MEDICAL CENTER,14.0,0.0,Cagayan Valley,16.680734,121.546678,2020-03-24 16:00:00.000,2020-03-24 20:47:25.312
REGION 2 TRAUMA AND MEDICAL CENTER,7.0,0.0,Cagayan Valley,16.4833227,121.134181,2020-03-24 16:00:00.000,2020-03-24 20:47:25.558
CAGAYAN VALLEY MEDICAL CENTER (CVMC),5.0,0.0,Cagayan Valley,17.657142,121.745972,2020-03-24 16:00:00.000,2020-03-24 20:47:25.707
CAUAYAN MEDICAL SPECIALIST HOSPITAL,1.0,0.0,Cagayan Valley,16.935884,121.770443,2020-03-24 16:00:00.000,2020-03-24 20:47:25.811
CENTRO MEDICO,4.0,0.0,Central Luzon,14.672753,120.524379,2020-03-24 16:00:00.000,2020-03-24 20:47:25.915
Jose B. Lingad Memorial Regional Hospital,3.0,4.0,Central Luzon,15.034472,120.684639,2020-03-24 16:00:00.000,2020-03-24 20:47:26.193
JECSON MEDICAL CENTER,2.0,0.0,Central Luzon,15.4911435,120.5974164,2020-03-24 16:00:00.000,2020-03-24 20:47:26.399
Bataan St. Joseph Hospital and Medical Center,1.0,1.0,Central Luzon,14.6814159,120.5415323,2020-03-24 16:00:00.000,2020-03-24 20:47:26.512
DR. PAULINO J GARCIA MEMORIAL RESEARCH AND MEDICAL CENTER,1.0,0.0,Central Luzon,15.489261,120.972506,2020-03-24 16:00:00.000,2020-03-24 20:47:26.709
JAMES L. GORDON MEMORIAL HOSPITAL,1.0,0.0,Central Luzon,14.826389,120.280028,2020-03-24 16:00:00.000,2020-03-24 20:47:26.936
PAMPANGA PREMIER MEDICAL CENTER,1.0,0.0,Central Luzon,14.960325,120.759348,2020-03-24 16:00:00.000,2020-03-24 20:47:27.039
PREMIERE MEDICAL CENTER,1.0,0.0,Central Luzon,14.4886025,120.9929305,2020-03-24 16:00:00.000,2020-03-24 20:47:27.368
RAMOS GENERAL HOSPITAL,1.0,0.0,Central Luzon,15.4849139,120.5929758,2020-03-24 16:00:00.000,2020-03-24 20:47:27.478
TARLAC PROVINCIAL HOSPITAL,1.0,0.0,Central Luzon,15.4750405,120.5865492,2020-03-24 16:00:00.000,2020-03-24 20:47:27.584
Qualimed - Sta. Rosa Hospital,2.0,1.0,CALABARZON,14.23239,121.05266,2020-03-24 16:00:00.000,2020-03-24 20:47:27.694
MARY MEDIATRIX MEDICAL CENTER,1.0,0.0,CALABARZON,13.943517,121.151582,2020-03-24 16:00:00.000,2020-03-24 20:47:27.808
ORTIGAS HOSPITAL AND HEALTHCARE CENTER,1.0,0.0,CALABARZON,14.585762,121.117815,2020-03-24 16:00:00.000,2020-03-24 20:47:28.141
SILANG SPECIALIST MEDICAL CENTER,1.0,0.0,CALABARZON,14.23456,120.972698,2020-03-24 16:00:00.000,2020-03-24 20:47:28.252
CULION SANITARIUM,3.0,0.0,MIMAROPA,11.89178,120.02352,2020-03-24 16:00:00.000,2020-03-24 20:47:28.386
Ospital Ng Palawan,3.0,1.0,MIMAROPA,9.74804,118.74415,2020-03-24 16:00:00.000,2020-03-24 20:47:28.520
LUBANG DISTRICT HOSPITAL,2.0,0.0,MIMAROPA,13.853591,120.107974,2020-03-24 16:00:00.000,2020-03-24 20:47:29.027
OCCIDENTAL MINDORO PROVINCIAL HOSPITAL,2.0,0.0,MIMAROPA,13.23024,120.58605,2020-03-24 16:00:00.000,2020-03-24 20:47:29.131
SAN SEBASTIAN DISTRICT HOSPITAL,2.0,0.0,MIMAROPA,12.84571,120.78698,2020-03-24 16:00:00.000,2020-03-24 20:47:29.491
CAMP GENERAL ARTEMIO RICARTE STATION HOSPITAL,1.0,0.0,MIMAROPA,9.746667,118.770841,2020-03-24 16:00:00.000,2020-03-24 20:47:29.720
DAMIAN PROV HOSPITAL,1.0,0.0,MIMAROPA,13.442819,121.82898,2020-03-24 16:00:00.000,2020-03-24 20:47:29.900
ISIAH HOSPITAL,1.0,0.0,MIMAROPA,12.385066,121.986913,2020-03-24 16:00:00.000,2020-03-24 20:47:30.300
PALAWAN MEDICAL MISSION MULTIPURPOSE COOPERATIVE,1.0,0.0,MIMAROPA,9.73538,118.73369,2020-03-24 16:00:00.000,2020-03-24 20:47:30.503
BICOL MEDICAL CENTER,1.0,0.0,Bicol Region,13.622059,123.198944,2020-03-24 16:00:00.000,2020-03-24 20:47:31.093
BICOL REGIONAL TRAINING AND TEACHING HOSPITAL,1.0,0.0,Bicol Region,13.310798,123.897777,2020-03-24 16:00:00.000,2020-03-24 20:47:31.971
THE MEDICAL CITY ILOILO,3.0,0.0,Western Visayas,10.699607,122.54303,2020-03-24 16:00:00.000,2020-03-24 20:47:32.120
WESTERN VISAYAS MEDICAL CENTER,3.0,0.0,Western Visayas,10.718087,122.540385,2020-03-24 16:00:00.000,2020-03-24 20:47:32.382
ROXAS MEMORIAL PROVINCIAL HOSPITAL,1.0,0.0,Western Visayas,11.588119,122.752371,2020-03-24 16:00:00.000,2020-03-24 20:47:32.930
THE HEALTH CENTRUM HOSPITAL,1.0,0.0,Western Visayas,11.581528,122.768203,2020-03-24 16:00:00.000,2020-03-24 20:47:33.063
CHONG HUA HOSPITAL,9.0,0.0,Central Visayas,10.309312,123.890621,2020-03-24 16:00:00.000,2020-03-24 20:47:33.177
Chong Hua Hospital Mandaue,7.0,1.0,Central Visayas,10.323323,123.931217,2020-03-24 16:00:00.000,2020-03-24 20:47:33.488
EVERSLEY CHILDS SANITARIUM,6.0,0.0,Central Visayas,10.3663702,123.9537125,2020-03-24 16:00:00.000,2020-03-24 20:47:33.662
GOV. CELESTINO GALLARES MEMORIAL HOSPITAL,3.0,0.0,Central Visayas,9.644068,123.856863,2020-03-24 16:00:00.000,2020-03-24 20:47:33.777
SIQUIJOR PROVINCIAL HOSPITAL,3.0,0.0,Central Visayas,9.219553,123.517105,2020-03-24 16:00:00.000,2020-03-24 20:47:34.517
VICENTE SOTTO MEMORIAL MEDICAL CENTER,2.0,0.0,Central Visayas,10.3080552,123.892631,2020-03-24 16:00:00.000,2020-03-24 20:47:34.669
ALLEGIANT REGIONAL CARE HOSPITALS,1.0,0.0,Central Visayas,10.282484,123.990058,2020-03-24 16:00:00.000,2020-03-24 20:47:34.911
CEBU SOUTH GENERAL HOSPITAL,1.0,0.0,Central Visayas,10.2322176,123.7714821,2020-03-24 16:00:00.000,2020-03-24 20:47:35.015
MACTAN DOCTORS' HOSPITAL,1.0,0.0,Central Visayas,10.2904036,123.9669379,2020-03-24 16:00:00.000,2020-03-24 20:47:35.282
SAINT VINCENT GENERAL HOSPITAL,1.0,0.0,Central Visayas,10.30155,123.894724,2020-03-24 16:00:00.000,2020-03-24 20:47:35.465
ST. ANTHONY MOTHER AND CHILD HOSPITAL,1.0,0.0,Central Visayas,10.286327,123.871411,2020-03-24 16:00:00.000,2020-03-24 20:47:36.037
EASTERN VISAYAS REGIONAL MEDICAL CENTER,4.0,0.0,Eastern Visayas,11.251723,125.004292,2020-03-24 16:00:00.000,2020-03-24 20:47:36.192
"CATARMAN DOCTORS HOSPITAL INC.,",1.0,0.0,Eastern Visayas,12.497957,124.647924,2020-03-24 16:00:00.000,2020-03-24 20:47:36.332
ORAS DISTRICT HOSPITAL,1.0,0.0,Eastern Visayas,12.1441026,125.4369005,2020-03-24 16:00:00.000,2020-03-24 20:47:36.447
PNP REGION 8,1.0,0.0,Eastern Visayas,11.184526,124.990378,2020-03-24 16:00:00.000,2020-03-24 20:47:36.753
REMEDIOS TRINIDAD ROMUALDEZ HOSPITAL,1.0,0.0,Eastern Visayas,11.212023,124.999876,2020-03-24 16:00:00.000,2020-03-24 20:47:36.984
MAYOR HILARION A. RAMIRO SR. MEDICAL CENTER,2.0,0.0,Northern Mindanao,8.1696196,123.8586578,2020-03-24 16:00:00.000,2020-03-24 20:47:37.100
Northern Mindanao Medical Center,2.0,1.0,Northern Mindanao,8.485676,124.649264,2020-03-24 16:00:00.000,2020-03-24 20:47:37.221
MERCY COMMUNITY HOSPITAL INC.,1.0,0.0,Northern Mindanao,8.20825,124.2404099,2020-03-24 16:00:00.000,2020-03-24 20:47:37.325
RHU BAROY,1.0,0.0,Northern Mindanao,8.0258303,123.7783432,2020-03-24 16:00:00.000,2020-03-24 20:47:37.425
Davao Regional Medical Center,11.0,2.0,Davao Region,7.422318,125.828438,2020-03-24 16:00:00.000,2020-03-24 20:47:38.075
Southern Philippines Medical Center,8.0,4.0,Davao Region,7.099528,125.619416,2020-03-24 16:00:00.000,2020-03-24 20:47:38.276
ST. ELIZABETH HOSPITAL,4.0,0.0,SOCCSKSARGEN,6.118547,125.179903,2020-03-24 16:00:00.000,2020-03-24 20:47:38.445
Cotabato Regional and Medical Center,2.0,1.0,SOCCSKSARGEN,7.2000499,124.236763,2020-03-24 16:00:00.000,2020-03-24 20:47:38.544
Cotabato Regional and Medical Center,1.0,1.0,SOCCSKSARGEN,7.2000499,124.236763,2020-03-24 16:00:00.000,2020-03-24 20:47:38.995
SOUTH COTABATO PROVINCIAL HOSPITAL,2.0,0.0,SOCCSKSARGEN,6.4931698,124.8396072,2020-03-24 16:00:00.000,2020-03-24 20:47:38.652
ALLAH VALLEY MEDICAL SPECIALIST INC.,1.0,0.0,SOCCSKSARGEN,6.4784999,124.8674011,2020-03-24 16:00:00.000,2020-03-24 20:47:38.792
DR. ARTURO PINGGOY MEDICAL CENTER,1.0,0.0,SOCCSKSARGEN,6.5053201,124.8370514,2020-03-24 16:00:00.000,2020-03-24 20:47:39.107
HOWARD HUBBARD MEMORIAL HOSPITAL,1.0,0.0,SOCCSKSARGEN,6.2459898,125.0946198,2020-03-24 16:00:00.000,2020-03-24 20:47:39.216
ST. LOUIS HOSPITAL,1.0,0.0,SOCCSKSARGEN,6.67869,124.6671371,2020-03-24 16:00:00.000,2020-03-24 20:47:39.329
Amai Pakpak Medical Center,6.0,1.0,BARMM,8.004503,124.283897,2020-03-24 16:00:00.000,2020-03-24 20:47:39.442
BENGUET GENERAL HOSPITAL,5.0,0.0,CAR,16.4508377,120.5895316,2020-03-24 16:00:00.000,2020-03-24 20:47:39.556
Baguio General Hospital And Medical Center,4.0,1.0,CAR,16.401006,120.5956721,2020-03-24 16:00:00.000,2020-03-24 20:47:39.791
NOTRE DAME DE CHARTRES HOSPITAL,3.0,0.0,CAR,16.4156176,120.5959821,2020-03-24 16:00:00.000,2020-03-24 20:47:39.893
CONNER DISTRICT HOSPITAL,2.0,0.0,CAR,17.800328,121.322549,2020-03-24 16:00:00.000,2020-03-24 20:47:40.007
FAR NORTH LUZON GENERAL HOSPITAL AND TRAINING CENTER,1.0,0.0,CAR,18.3386176,121.3838821,2020-03-24 16:00:00.000,2020-03-24 20:47:40.149
JUAN DUYAN MEMORIAL HOSPITAL,1.0,0.0,CAR,17.518614,121.582505,2020-03-24 16:00:00.000,2020-03-24 20:47:40.253
KALINGA PROVINCIAL HOSPITAL,1.0,0.0,CAR,17.4102,121.439935,2020-03-24 16:00:00.000,2020-03-24 20:47:40.354
KAPANGAN RHU,1.0,0.0,CAR,16.576121,120.607192,2020-03-24 16:00:00.000,2020-03-24 20:47:40.456
LANGIDEN RHU,1.0,0.0,CAR,17.575766,120.564408,2020-03-24 16:00:00.000,2020-03-24 20:47:40.561
PINES CITY DOCTORS HOSPITAL,1.0,0.0,CAR,16.426542,120.594647,2020-03-24 16:00:00.000,2020-03-24 20:47:40.681
PINUKPUK DISTRICT HOSPITAL,1.0,0.0,CAR,17.6129865,121.4097436,2020-03-24 16:00:00.000,2020-03-24 20:47:40.793
SAINT LOUIS UNIVERSITY HOSPITAL OF SACRED HEART,1.0,0.0,CAR,16.4170577,120.5977415,2020-03-24 16:00:00.000,2020-03-24 20:47:40.903
ADELA SERRA TY MEMORIAL MEDICAL CENTER,2.0,0.0,Caraga,9.068553,126.190498,2020-03-24 16:00:00.000,2020-03-24 20:47:41.012
CARAGA REGIONAL HOSPITAL,1.0,0.0,Caraga,9.784281,125.489826,2020-03-24 16:00:00.000,2020-03-24 20:47:41.121
Manila Doctors Hospital,0.0,14.0,,14.582028,120.982657,2020-03-24 16:00:00.000,2020-03-24 20:47:43.326
Philippine Heart Center,0.0,8.0,,14.64407,121.048067,2020-03-24 16:00:00.000,2020-03-24 20:47:43.914
University Of The East Ramon Magsaysay Memorial Medical Center,0.0,8.0,,14.60703,121.020581,2020-03-24 16:00:00.000,2020-03-24 20:47:44.326
Veterans Memorial Medical Center,0.0,6.0,,14.65616,121.04012,2020-03-24 16:00:00.000,2020-03-24 20:47:44.599
San Juan Medical Center,0.0,5.0,,14.606611,121.023542,2020-03-24 16:00:00.000,2020-03-24 20:47:44.849
De Los Santos Medical Center,0.0,3.0,,14.620153,121.017477,2020-03-24 16:00:00.000,2020-03-24 20:47:46.860
Fe Del Mundo Medical Center,0.0,3.0,,14.620412,121.009296,2020-03-24 16:00:00.000,2020-03-24 20:47:47.393
Santa Ana Hospital,0.0,3.0,,14.583621,121.016425,2020-03-24 16:00:00.000,2020-03-24 20:47:47.620
Divine Grace Medical Center,0.0,2.0,,14.39785,120.868043,2020-03-24 16:00:00.000,2020-03-24 20:47:48.042
Dr. Paulino J. Garcia Hospital,0.0,2.0,,15.489271,120.972785,2020-03-24 16:00:00.000,2020-03-24 20:47:48.279
FEU - Dr. Nicanor Reyes Medical Foundation,0.0,2.0,,14.698851,121.067192,2020-03-24 16:00:00.000,2020-03-24 20:47:48.477
Mandaluyong City Medical Center,0.0,2.0,,14.576313,121.035279,2020-03-24 16:00:00.000,2020-03-24 20:47:48.864
Providence Hospital,0.0,2.0,,14.640992,121.031746,2020-03-24 16:00:00.000,2020-03-24 20:47:49.858
ACE Medical Center,0.0,1.0,,9.634451,123.869198,2020-03-24 16:00:00.000,2020-03-24 20:47:50.183
Adventist Medical Center,0.0,1.0,,14.555997,120.99541,2020-03-24 16:00:00.000,2020-03-24 20:47:50.478
Angono Medics Hospital,0.0,1.0,,14.531272,121.152922,2020-03-24 16:00:00.000,2020-03-24 20:47:50.721
Bataan General Hospital And Medical Center,0.0,1.0,,14.678271,120.530364,2020-03-24 16:00:00.000,2020-03-24 20:47:51.281
Binakayan Hospital And Medical Center,0.0,1.0,,14.451741,120.926132,2020-03-24 16:00:00.000,2020-03-24 20:47:51.664
Cainta Rural Health Unit,0.0,1.0,,14.580116,121.114665,2020-03-24 16:00:00.000,2020-03-24 20:47:51.988
Capitol Medical Center,0.0,1.0,,14.634239,121.022776,2020-03-24 16:00:00.000,2020-03-24 20:47:52.790
Daniel O. Mercado Medical Center,0.0,1.0,,14.079849,121.15068,2020-03-24 16:00:00.000,2020-03-24 20:47:53.382
De La Salle University Medical Center,0.0,1.0,,14.327171,120.94343,2020-03-24 16:00:00.000,2020-03-24 20:47:53.518
Divine Mercy Wellness Center,0.0,1.0,,17.61116,121.72732,2020-03-24 16:00:00.000,2020-03-24 20:47:53.645
Dr. Pablo O. Torre Memorial Hospital,0.0,1.0,,10.682441,122.958033,2020-03-24 16:00:00.000,2020-03-24 20:47:53.894
Las Piñas General Hospital and Satellite Trauma Center,0.0,1.0,,14.471649,120.973822,2020-03-24 16:00:00.000,2020-03-24 20:47:57.021
Medical Center Parañaque,0.0,1.0,,14.45825,121.033376,2020-03-24 16:00:00.000,2020-03-24 20:47:57.166
Naic Rural Health Unit,0.0,1.0,,14.318871,120.7643028,2020-03-24 16:00:00.000,2020-03-24 20:47:57.369
National Center For Mental Health,0.0,1.0,,14.581033,121.042788,2020-03-24 16:00:00.000,2020-03-24 20:47:57.485
National Kidney and Transplant Institute,0.0,1.0,,14.646807,121.047243,2020-03-24 16:00:00.000,2020-03-24 20:47:57.629
Olivarez General Hospital,0.0,1.0,,14.479004,120.99721,2020-03-24 16:00:00.000,2020-03-24 20:47:58.119
Ortigas Hospital and Health Care Center,0.0,1.0,,14.585765,121.11779,2020-03-24 16:00:00.000,2020-03-24 20:47:58.450
Our Lady of Mt. Carmel Medical Center,0.0,1.0,,15.182178,120.529903,2020-03-24 16:00:00.000,2020-03-24 20:47:58.721
Pasig City General Hospital,0.0,1.0,,14.5724,121.099201,2020-03-24 16:00:00.000,2020-03-24 20:47:59.056
Pasig Doctors Medical Center,0.0,1.0,,14.600683,121.092135,2020-03-24 16:00:00.000,2020-03-24 20:47:59.325
Perpetual Succor Hospital,0.0,1.0,,14.608177,120.992337,2020-03-24 16:00:00.000,2020-03-24 20:47:59.515
Philippine General Hospital,0.0,1.0,,14.578168,120.985905,2020-03-24 16:00:00.000,2020-03-24 20:47:59.645
Pope John Paul II Hospital and Medical Center,0.0,1.0,,14.44325,120.996252,2020-03-24 16:00:00.000,2020-03-24 20:47:59.842
Quezon City General Hospital,0.0,1.0,,14.661098,121.018193,2020-03-24 16:00:00.000,2020-03-24 20:48:01.105
Rosario Maclang Bautista General Hospital,0.0,1.0,,14.686009,121.089385,2020-03-24 16:00:00.000,2020-03-24 20:48:01.345
Sacred Heart Hospital Of Malolos,0.0,1.0,,14.851641,120.817766,2020-03-24 16:00:00.000,2020-03-24 20:48:01.509
San Juan de Dios Education Foundation Inc. Hospital,0.0,1.0,,14.538532,120.993035,2020-03-24 16:00:00.000,2020-03-24 20:48:01.676
San Pedro Calungsod Medical Center,0.0,1.0,,14.427836,120.894619,2020-03-24 16:00:00.000,2020-03-24 20:48:01.798
Silang Specialists Medical Center,0.0,1.0,,14.234671,120.972779,2020-03-24 16:00:00.000,2020-03-24 20:48:02.032
Siliman University Medical Center,0.0,1.0,,9.316274,123.303991,2020-03-24 16:00:00.000,2020-03-24 20:48:02.280
